dive_id,dive_name,cruise_name,time,lat,pitch,lon,roll,altitude,heading,oxygen,temp,depth,psu,medium,Morphotype,count,Kingdom,Phylum,Class,Subclass,Order,Suborder,Family,Subfamily,Genus,Subgenus,Species,Subspecies,sp/spp
2263,EX2104_Dive03 Hopscotch Seamount,NOAA OER EX2104,2021-07-06 14:31:39 UTC,33.676155,-0.6,-52.995053,-0.7,0.7,112.8,8.1204,3.207,2640.7648,34.95838,gravel,CAO01,1,Animalia,Cnidaria,Anthozoa,Octocorallia,Scleralcyonacea,,Umbellulidae,,Umbellula,,,,sp.
2263,EX2104_Dive03 Hopscotch Seamount,NOAA OER EX2104,2021-07-06 14:35:13 UTC,33.676313,-0.4,-52.994933,-0.6,0.9,75.5,8.13797,3.209,2638.1667,34.95859,gravel,PH21,1,Animalia,Porifera,Hexactinellida,,,,,,,,,,spp.
2263,EX2104_Dive03 Hopscotch Seamount,NOAA OER EX2104,2021-07-06 14:41:21 UTC,33.67612,-0.2,-52.994836,-0.5,1.9,138.6,8.10687,3.21351,2631.3228,34.95875,gravel,CAO01,1,Animalia,Cnidaria,Anthozoa,Octocorallia,Scleralcyonacea,,Umbellulidae,,Umbellula,,,,sp.
2263,EX2104_Dive03 Hopscotch Seamount,NOAA OER EX2104,2021-07-06 14:42:55 UTC,33.676134,-0.4,-52.994796,-0.7,0.9,138,8.09517,3.21173,2630.3232,34.95765,gravel,PH21,1,Animalia,Porifera,Hexactinellida,,,,,,,,,,spp.
2263,EX2104_Dive03 Hopscotch Seamount,NOAA OER EX2104,2021-07-06 14:48:16 UTC,33.676044,-0.4,-52.994699,-0.2,1.8,131.5,8.10843,3.23266,2624.3701,34.95997,gravel,CAO01,1,Animalia,Cnidaria,Anthozoa,Octocorallia,Scleralcyonacea,,Umbellulidae,,Umbellula,,,,sp.
2263,EX2104_Dive03 Hopscotch Seamount,NOAA OER EX2104,2021-07-06 14:51:01 UTC,33.676339,-0.8,-52.994522,-0.6,3.6,87.6,8.1431,3.23255,2618.3728,34.96033,gravel,PH75,1,Animalia,Porifera,Hexactinellida,Hexasterophora,Lyssacinosida,,Rossellidae,,,,,,spp.
2263,EX2104_Dive03 Hopscotch Seamount,NOAA OER EX2104,2021-07-06 15:07:41 UTC,33.676204,-0.5,-52.994506,-0.4,2.9,83.6,8.10726,3.23065,2617.3756,34.95752,outcrop,PD03,1,Animalia,Porifera,,,,,,,,,,,spp.
2263,EX2104_Dive03 Hopscotch Seamount,NOAA OER EX2104,2021-07-06 15:11:14 UTC,33.676374,-0.9,-52.994449,-0.5,2.1,82.5,8.10171,3.21368,2615.9784,34.95975,outcrop,CAO02,1,Animalia,Cnidaria,Anthozoa,Octocorallia,Scleralcyonacea,,Keratoisididae,,"""Lepdisis""",,,,spp.
2263,EX2104_Dive03 Hopscotch Seamount,NOAA OER EX2104,2021-07-06 15:15:10 UTC,33.676205,-0.6,-52.994418,-0.1,2.6,98.7,8.09084,3.21641,2612.2854,34.95963,outcrop,PD03,1,Animalia,Porifera,,,,,,,,,,,spp.
2263,EX2104_Dive03 Hopscotch Seamount,NOAA OER EX2104,2021-07-06 15:19:16 UTC,33.67638,-0.4,-52.99448,-0.5,3,52,8.08256,3.23205,2611.1165,34.96062,outcrop,PD03,1,Animalia,Porifera,,,,,,,,,,,spp.
2263,EX2104_Dive03 Hopscotch Seamount,NOAA OER EX2104,2021-07-06 15:24:23 UTC,33.676223,-0.4,-52.994318,-0.5,4.5,97.7,8.09747,3.2124,2605.4169,34.95748,bedrock,PD08,1,Animalia,Porifera,Demospongiae,,,,,,,,,,spp.
2263,EX2104_Dive03 Hopscotch Seamount,NOAA OER EX2104,2021-07-06 15:30:20 UTC,33.676182,-0.6,-52.994358,-0.2,7.1,113.3,8.11828,3.21045,2601.7163,34.95878,bedrock,PH10,1,Animalia,Porifera,Hexactinellida,Hexasterophora,Lyssacinosida,,Euplectellidae,,,,,,spp.
2263,EX2104_Dive03 Hopscotch Seamount,NOAA OER EX2104,2021-07-06 15:32:55 UTC,33.67628,-0.6,-52.994322,-0.5,8.6,78.2,8.07487,3.20745,2598.6403,34.95874,bedrock,CAO02,1,Animalia,Cnidaria,Anthozoa,Octocorallia,Scleralcyonacea,,Keratoisididae,,"""Lepdisis""",,,,spp.
2263,EX2104_Dive03 Hopscotch Seamount,NOAA OER EX2104,2021-07-06 15:36:36 UTC,33.676198,-0.7,-52.994375,-0.4,11.7,92.6,8.13252,3.19843,2595.5246,34.95774,bedrock,CAO02,1,Animalia,Cnidaria,Anthozoa,Octocorallia,Scleralcyonacea,,Keratoisididae,,"""Lepdisis""",,,,spp.
2263,EX2104_Dive03 Hopscotch Seamount,NOAA OER EX2104,2021-07-06 15:37:37 UTC,33.676129,-0.6,-52.994442,-0.5,9.2,120.2,8.0964,3.19575,2592.6592,34.9569,bedrock,PD03,1,Animalia,Porifera,,,,,,,,,,,spp.
2263,EX2104_Dive03 Hopscotch Seamount,NOAA OER EX2104,2021-07-06 15:38:22 UTC,33.676159,-0.4,-52.994285,-0.5,-1,126.7,8.12851,3.19542,2591.6708,34.95876,bedrock,CAO02,1,Animalia,Cnidaria,Anthozoa,Octocorallia,Scleralcyonacea,,Keratoisididae,,"""Lepdisis""",,,,spp.
2263,EX2104_Dive03 Hopscotch Seamount,NOAA OER EX2104,2021-07-06 15:40:58 UTC,33.676152,-0.6,-52.994327,-0.3,-1,133.4,8.11859,3.19542,2591.7287,34.95845,bedrock,CAO46,1,Animalia,Cnidaria,Anthozoa,Octocorallia,Scleralcyonacea,,Keratoisididae,Keratoisidinae,"""J-clade""",,,,sp.
2263,EX2104_Dive03 Hopscotch Seamount,NOAA OER EX2104,2021-07-06 15:46:40 UTC,33.676055,-0.5,-52.994186,-0.9,8,95.4,8.12026,3.19653,2591.1835,34.95886,bedrock,CAO02,1,Animalia,Cnidaria,Anthozoa,Octocorallia,Scleralcyonacea,,Keratoisididae,,"""Lepdisis""",,,,spp.
2263,EX2104_Dive03 Hopscotch Seamount,NOAA OER EX2104,2021-07-06 15:48:28 UTC,33.676205,-0.2,-52.994297,-0.5,17,41.6,8.06957,3.20099,2585.8166,34.95736,bedrock,CAO02,4,Animalia,Cnidaria,Anthozoa,Octocorallia,Scleralcyonacea,,Keratoisididae,,"""Lepdisis""",,,,spp.
2263,EX2104_Dive03 Hopscotch Seamount,NOAA OER EX2104,2021-07-06 15:48:28 UTC,33.676205,-0.2,-52.994297,-0.5,17,41.6,8.06957,3.20099,2585.8166,34.95736,bedrock,PH10,1,Animalia,Porifera,Hexactinellida,Hexasterophora,Lyssacinosida,,Euplectellidae,,,,,,spp.
2263,EX2104_Dive03 Hopscotch Seamount,NOAA OER EX2104,2021-07-06 15:51:02 UTC,33.676103,-0.4,-52.994104,-0.7,6.7,107.3,8.07776,3.19548,2583.3317,34.95799,bedrock,CAO02,1,Animalia,Cnidaria,Anthozoa,Octocorallia,Scleralcyonacea,,Keratoisididae,,"""Lepdisis""",,,,spp.
2263,EX2104_Dive03 Hopscotch Seamount,NOAA OER EX2104,2021-07-06 15:51:31 UTC,33.676124,-0.4,-52.994093,-0.8,7.4,63.6,8.102,3.1962,2581.9183,34.95887,bedrock,PH10,1,Animalia,Porifera,Hexactinellida,Hexasterophora,Lyssacinosida,,Euplectellidae,,,,,,spp.
2263,EX2104_Dive03 Hopscotch Seamount,NOAA OER EX2104,2021-07-06 15:51:35 UTC,33.676124,-0.4,-52.994093,-1.1,-1,63.3,8.08588,3.19525,2581.6671,34.95829,bedrock,CAO02,1,Animalia,Cnidaria,Anthozoa,Octocorallia,Scleralcyonacea,,Keratoisididae,,"""Lepdisis""",,,,spp.
2263,EX2104_Dive03 Hopscotch Seamount,NOAA OER EX2104,2021-07-06 15:54:39 UTC,33.676025,-0.3,-52.994112,-0.6,11.9,88.3,8.09119,3.20082,2573.1183,34.95849,bedrock,CAO02,1,Animalia,Cnidaria,Anthozoa,Octocorallia,Scleralcyonacea,,Keratoisididae,,"""Lepdisis""",,,,spp.
2263,EX2104_Dive03 Hopscotch Seamount,NOAA OER EX2104,2021-07-06 15:58:39 UTC,33.676164,-0.4,-52.994016,-0.4,9.1,122.6,8.08341,3.19971,2570.1808,34.95752,bedrock,PH10,2,Animalia,Porifera,Hexactinellida,Hexasterophora,Lyssacinosida,,Euplectellidae,,,,,,spp.
2263,EX2104_Dive03 Hopscotch Seamount,NOAA OER EX2104,2021-07-06 15:58:56 UTC,33.676151,-0.7,-52.994031,-0.4,8.4,123.7,8.10742,3.20021,2570.7599,34.9591,bedrock,PH07,1,Animalia,Porifera,Hexactinellida,Hexasterophora,Sceptrulophora,,,,,,,,spp.
2263,EX2104_Dive03 Hopscotch Seamount,NOAA OER EX2104,2021-07-06 16:00:40 UTC,33.676164,-0.7,-52.993933,-0.3,7,120.9,8.09503,3.20115,2571.1015,34.95837,bedrock,PH53,1,Animalia,Porifera,Hexactinellida,Hexasterophora,Lyssacinosida,,Euplectellidae,Bolosominae,,,,,sp.
2263,EX2104_Dive03 Hopscotch Seamount,NOAA OER EX2104,2021-07-06 16:00:45 UTC,33.676164,-0.7,-52.993933,-0.4,-1,119,8.10702,3.20177,2570.7984,34.9585,bedrock,PH07,2,Animalia,Porifera,Hexactinellida,Hexasterophora,Sceptrulophora,,,,,,,,spp.
2263,EX2104_Dive03 Hopscotch Seamount,NOAA OER EX2104,2021-07-06 16:01:49 UTC,33.676183,-0.2,-52.993945,-0.4,11,102.6,8.06991,3.20071,2567.2466,34.9581,bedrock,CAO02,10,Animalia,Cnidaria,Anthozoa,Octocorallia,Scleralcyonacea,,Keratoisididae,,"""Lepdisis""",,,,spp.
2263,EX2104_Dive03 Hopscotch Seamount,NOAA OER EX2104,2021-07-06 16:02:09 UTC,33.676151,-0.3,-52.993919,-0.4,12,103.5,8.0918,3.19859,2565.8405,34.95964,bedrock,PH07,1,Animalia,Porifera,Hexactinellida,Hexasterophora,Sceptrulophora,,,,,,,,spp.
2263,EX2104_Dive03 Hopscotch Seamount,NOAA OER EX2104,2021-07-06 16:03:04 UTC,33.676133,-0.7,-52.993937,-0.4,-1,103.7,8.12405,3.20193,2562.3117,34.95916,bedrock,PH10,1,Animalia,Porifera,Hexactinellida,Hexasterophora,Lyssacinosida,,Euplectellidae,,,,,,spp.
2263,EX2104_Dive03 Hopscotch Seamount,NOAA OER EX2104,2021-07-06 16:03:51 UTC,33.676117,-0.5,-52.993904,-0.4,-1,106.7,8.04506,3.20149,2562.2416,34.95861,bedrock,PH10,8,Animalia,Porifera,Hexactinellida,Hexasterophora,Lyssacinosida,,Euplectellidae,,,,,,spp.
2263,EX2104_Dive03 Hopscotch Seamount,NOAA OER EX2104,2021-07-06 16:06:09 UTC,33.676209,-0.6,-52.993988,-0.4,-1,125,8.10838,3.20032,2560.8525,34.95901,bedrock,PH10,1,Animalia,Porifera,Hexactinellida,Hexasterophora,Lyssacinosida,,Euplectellidae,,,,,,spp.
2263,EX2104_Dive03 Hopscotch Seamount,NOAA OER EX2104,2021-07-06 16:07:06 UTC,33.676161,-0.4,-52.993886,-0.4,-1,135.2,8.09889,3.20038,2560.4324,34.9581,bedrock,PH10,1,Animalia,Porifera,Hexactinellida,Hexasterophora,Lyssacinosida,,Euplectellidae,,,,,,spp.
2263,EX2104_Dive03 Hopscotch Seamount,NOAA OER EX2104,2021-07-06 16:08:28 UTC,33.676225,-0.6,-52.99391,-0.6,16.5,115.9,8.08878,3.19893,2560.3103,34.95898,bedrock,CAO21,1,Animalia,Cnidaria,Anthozoa,Octocorallia,Scleralcyonacea,,Keratoisididae,,,,,,spp.
2263,EX2104_Dive03 Hopscotch Seamount,NOAA OER EX2104,2021-07-06 16:10:19 UTC,33.676129,-0.7,-52.993884,-0.4,16.5,94,8.07594,3.19542,2560.0564,34.95781,bedrock,CAO02,5,Animalia,Cnidaria,Anthozoa,Octocorallia,Scleralcyonacea,,Keratoisididae,,"""Lepdisis""",,,,spp.
2263,EX2104_Dive03 Hopscotch Seamount,NOAA OER EX2104,2021-07-06 16:10:42 UTC,33.676099,-0.7,-52.993963,-0.4,17.2,101.9,8.0988,3.19509,2559.152,34.95858,bedrock,P13,1,Animalia,Porifera,Hexactinellida,Hexasterophora,Lyssacinosida,,Euplectellidae,,,,,,sp.
2263,EX2104_Dive03 Hopscotch Seamount,NOAA OER EX2104,2021-07-06 16:13:14 UTC,33.676043,-0.6,-52.993864,-0.4,-1,117.6,8.09825,3.19859,2554.9872,34.95758,bedrock,PH10,3,Animalia,Porifera,Hexactinellida,Hexasterophora,Lyssacinosida,,Euplectellidae,,,,,,spp.
2263,EX2104_Dive03 Hopscotch Seamount,NOAA OER EX2104,2021-07-06 16:14:40 UTC,33.675902,-0.5,-52.993843,-0.5,-1,110.1,8.09993,3.20271,2553.6059,34.95382,bedrock,PH24,1,Animalia,Porifera,Hexactinellida,Hexasterophora,Sceptrulophora,,Farreidae,,Farrea,,,,spp.
2263,EX2104_Dive03 Hopscotch Seamount,NOAA OER EX2104,2021-07-06 16:15:09 UTC,33.675947,-0.4,-52.993878,-0.4,-1,106.4,8.02805,3.19731,2553.2562,34.95931,bedrock,PH10,2,Animalia,Porifera,Hexactinellida,Hexasterophora,Lyssacinosida,,Euplectellidae,,,,,,spp.
2263,EX2104_Dive03 Hopscotch Seamount,NOAA OER EX2104,2021-07-06 16:16:15 UTC,33.676244,-0.2,-52.993834,-0.5,-1,69.9,8.09195,3.19687,2553.6114,34.95857,bedrock,PH10,2,Animalia,Porifera,Hexactinellida,Hexasterophora,Lyssacinosida,,Euplectellidae,,,,,,spp.
2263,EX2104_Dive03 Hopscotch Seamount,NOAA OER EX2104,2021-07-06 16:17:08 UTC,33.676163,-0.8,-52.993812,-0.5,-1,86.6,8.10792,3.19603,2553.4926,34.9588,bedrock,PH07,1,Animalia,Porifera,Hexactinellida,Hexasterophora,Sceptrulophora,,,,,,,,spp.
2263,EX2104_Dive03 Hopscotch Seamount,NOAA OER EX2104,2021-07-06 16:17:49 UTC,33.676197,-0.9,-52.993806,-0.5,-1,94.2,8.08992,3.19781,2551.8528,34.96014,bedrock,CAO02,3,Animalia,Cnidaria,Anthozoa,Octocorallia,Scleralcyonacea,,Keratoisididae,,"""Lepdisis""",,,,spp.
2263,EX2104_Dive03 Hopscotch Seamount,NOAA OER EX2104,2021-07-06 16:18:10 UTC,33.676212,-0.4,-52.993769,-0.6,-1,91.2,8.04893,3.20243,2551.0225,34.95818,bedrock,PH10,1,Animalia,Porifera,Hexactinellida,Hexasterophora,Lyssacinosida,,Euplectellidae,,,,,,spp.
2263,EX2104_Dive03 Hopscotch Seamount,NOAA OER EX2104,2021-07-06 16:19:02 UTC,33.676045,-0.6,-52.993868,-0.6,-1,87.2,8.08321,3.20082,2549.5046,34.95806,bedrock,PH24,8,Animalia,Porifera,Hexactinellida,Hexasterophora,Sceptrulophora,,Farreidae,,Farrea,,,,spp.
2263,EX2104_Dive03 Hopscotch Seamount,NOAA OER EX2104,2021-07-06 16:20:27 UTC,33.676237,-0.6,-52.993774,-0.4,-1,105.4,8.07609,3.20177,2548.8423,34.95849,bedrock,PH39,3,Animalia,Porifera,Hexactinellida,Hexasterophora,Sceptrulophora,,Farreidae,,Farrea,,,,spp.
2263,EX2104_Dive03 Hopscotch Seamount,NOAA OER EX2104,2021-07-06 16:20:27 UTC,33.676237,-0.6,-52.993774,-0.4,-1,105.4,8.07609,3.20177,2548.8423,34.95849,bedrock,PH10,2,Animalia,Porifera,Hexactinellida,Hexasterophora,Lyssacinosida,,Euplectellidae,,,,,,spp.
2263,EX2104_Dive03 Hopscotch Seamount,NOAA OER EX2104,2021-07-06 16:20:39 UTC,33.676144,-0.6,-52.993798,-0.5,-1,116.9,8.05866,3.19781,2548.2297,34.95901,bedrock,PH10,8,Animalia,Porifera,Hexactinellida,Hexasterophora,Lyssacinosida,,Euplectellidae,,,,,,spp.
2263,EX2104_Dive03 Hopscotch Seamount,NOAA OER EX2104,2021-07-06 16:21:28 UTC,33.676,-0.5,-52.993963,-0.4,-1,112,8.07292,3.19843,2547.9644,34.95884,bedrock,CAO02,10,Animalia,Cnidaria,Anthozoa,Octocorallia,Scleralcyonacea,,Keratoisididae,,"""Lepdisis""",,,,spp.
2263,EX2104_Dive03 Hopscotch Seamount,NOAA OER EX2104,2021-07-06 16:21:28 UTC,33.676,-0.5,-52.993963,-0.4,-1,112,8.07292,3.19843,2547.9644,34.95884,bedrock,PH07,3,Animalia,Porifera,Hexactinellida,Hexasterophora,Sceptrulophora,,,,,,,,spp.
2263,EX2104_Dive03 Hopscotch Seamount,NOAA OER EX2104,2021-07-06 16:23:11 UTC,33.67597,-0.5,-52.993861,-0.4,-1,116,8.12467,3.20127,2547.8781,34.95912,bedrock,PH27,1,Animalia,Porifera,Hexactinellida,Hexasterophora,Sceptrulophora,,Euretidae,Chonelasmatinae,Chonelasma,,,,sp.
2263,EX2104_Dive03 Hopscotch Seamount,NOAA OER EX2104,2021-07-06 16:23:17 UTC,33.67597,-0.5,-52.993861,-0.4,-1,127.1,8.0645,3.20015,2547.8835,34.95881,bedrock,PD08,1,Animalia,Porifera,Demospongiae,,,,,,,,,,spp.
2263,EX2104_Dive03 Hopscotch Seamount,NOAA OER EX2104,2021-07-06 16:23:23 UTC,33.676028,-0.7,-52.993955,-0.4,-1,134.4,8.06817,3.19882,2547.8869,34.96092,bedrock,PH24,5,Animalia,Porifera,Hexactinellida,Hexasterophora,Sceptrulophora,,Farreidae,,Farrea,,,,spp.
2263,EX2104_Dive03 Hopscotch Seamount,NOAA OER EX2104,2021-07-06 16:24:01 UTC,33.676095,-0.4,-52.993951,-0.5,-1,143.7,8.10978,3.20049,2546.2408,34.95817,bedrock,PH10,2,Animalia,Porifera,Hexactinellida,Hexasterophora,Lyssacinosida,,Euplectellidae,,,,,,spp.
2263,EX2104_Dive03 Hopscotch Seamount,NOAA OER EX2104,2021-07-06 16:24:01 UTC,33.676095,-0.4,-52.993951,-0.5,-1,143.7,8.10978,3.20049,2546.2408,34.95817,bedrock,PH07,1,Animalia,Porifera,Hexactinellida,Hexasterophora,Sceptrulophora,,,,,,,,spp.
2263,EX2104_Dive03 Hopscotch Seamount,NOAA OER EX2104,2021-07-06 16:24:12 UTC,33.675921,-0.5,-52.993941,-0.4,-1,146.5,8.08215,3.20811,2545.7304,34.95501,bedrock,PD08,4,Animalia,Porifera,Demospongiae,,,,,,,,,,spp.
2263,EX2104_Dive03 Hopscotch Seamount,NOAA OER EX2104,2021-07-06 16:24:34 UTC,33.676192,-0.6,-52.993753,-0.5,-1,133.7,8.08539,3.19637,2545.0259,34.95816,bedrock,PH24,15,Animalia,Porifera,Hexactinellida,Hexasterophora,Sceptrulophora,,Farreidae,,Farrea,,,,spp.
2263,EX2104_Dive03 Hopscotch Seamount,NOAA OER EX2104,2021-07-06 16:24:42 UTC,33.676192,-0.6,-52.993753,-0.5,-1,137.8,8.08986,3.19715,2544.8337,34.95883,bedrock,PH10,5,Animalia,Porifera,Hexactinellida,Hexasterophora,Lyssacinosida,,Euplectellidae,,,,,,spp.
2263,EX2104_Dive03 Hopscotch Seamount,NOAA OER EX2104,2021-07-06 16:24:57 UTC,33.6761,-0.6,-52.993854,-0.5,-1,131.8,8.09607,3.19592,2544.4968,34.95993,bedrock,PD03,1,Animalia,Porifera,,,,,,,,,,,spp.
2263,EX2104_Dive03 Hopscotch Seamount,NOAA OER EX2104,2021-07-06 16:25:00 UTC,33.6761,-0.5,-52.993854,-0.5,-1,131,8.08609,3.19893,2544.4305,34.9589,bedrock,CAH30,1,Animalia,Cnidaria,Anthozoa,Hexacorallia,Anthiparia,,Schizopathidae,,Bathypathes,,,,sp.
2263,EX2104_Dive03 Hopscotch Seamount,NOAA OER EX2104,2021-07-06 16:25:35 UTC,33.676132,-0.5,-52.99389,-0.5,-1,130.4,8.0804,3.1962,2543.9416,34.95884,bedrock,CAO07,1,Animalia,Cnidaria,Anthozoa,Octocorallia,Scleralcyonacea,,Coralliidae,,Hemicorallium,,,,sp.
2263,EX2104_Dive03 Hopscotch Seamount,NOAA OER EX2104,2021-07-06 16:25:38 UTC,33.676132,-0.5,-52.99389,-0.5,-1,129.6,8.04687,3.19748,2543.8974,34.95786,bedrock,PH24,9,Animalia,Porifera,Hexactinellida,Hexasterophora,Sceptrulophora,,Farreidae,,Farrea,,,,spp.
2263,EX2104_Dive03 Hopscotch Seamount,NOAA OER EX2104,2021-07-06 16:26:49 UTC,33.676114,-0.6,-52.993869,-0.5,-1,102.6,8.08379,3.20511,2542.1395,34.95844,bedrock,CAH04,1,Animalia,Cnidaria,Anthozoa,Hexacorallia,Anthiparia,,Schizopathidae,,Bathypathes,,,,spp.
2263,EX2104_Dive03 Hopscotch Seamount,NOAA OER EX2104,2021-07-06 16:27:00 UTC,33.676217,-0.5,-52.993789,-0.5,-1,102.4,8.11105,3.19987,2541.7158,34.95951,bedrock,PH27,1,Animalia,Porifera,Hexactinellida,Hexasterophora,Sceptrulophora,,Euretidae,Chonelasmatinae,Chonelasma,,,,sp.
2263,EX2104_Dive03 Hopscotch Seamount,NOAA OER EX2104,2021-07-06 16:27:00 UTC,33.676217,-0.5,-52.993789,-0.5,-1,102.4,8.11105,3.19987,2541.7158,34.95951,bedrock,PH10,1,Animalia,Porifera,Hexactinellida,Hexasterophora,Lyssacinosida,,Euplectellidae,,,,,,spp.
2263,EX2104_Dive03 Hopscotch Seamount,NOAA OER EX2104,2021-07-06 16:27:16 UTC,33.676217,-0.5,-52.993789,-0.5,-1,106.8,8.0822,3.19787,2541.2757,34.95867,bedrock,PH10,2,Animalia,Porifera,Hexactinellida,Hexasterophora,Lyssacinosida,,Euplectellidae,,,,,,spp.
2263,EX2104_Dive03 Hopscotch Seamount,NOAA OER EX2104,2021-07-06 16:27:51 UTC,33.676048,-0.6,-52.993966,-0.4,-1,120.1,8.08462,3.19987,2540.7783,34.95854,bedrock,PH13,1,Animalia,Porifera,,,,,,,,,,,spp.
2263,EX2104_Dive03 Hopscotch Seamount,NOAA OER EX2104,2021-07-06 16:29:02 UTC,33.676179,-0.5,-52.993859,-0.4,-1,108,8.12145,3.19715,2540.4678,34.95903,bedrock,PH10,2,Animalia,Porifera,Hexactinellida,Hexasterophora,Lyssacinosida,,Euplectellidae,,,,,,spp.
2263,EX2104_Dive03 Hopscotch Seamount,NOAA OER EX2104,2021-07-06 16:33:24 UTC,33.67619,-0.5,-52.993784,-0.5,-1,103.7,8.09438,3.19909,2537.475,34.95802,bedrock,PH24,5,Animalia,Porifera,Hexactinellida,Hexasterophora,Sceptrulophora,,Farreidae,,Farrea,,,,spp.
2263,EX2104_Dive03 Hopscotch Seamount,NOAA OER EX2104,2021-07-06 16:33:24 UTC,33.67619,-0.5,-52.993784,-0.5,-1,103.7,8.09438,3.19909,2537.475,34.95802,bedrock,PH10,5,Animalia,Porifera,Hexactinellida,Hexasterophora,Lyssacinosida,,Euplectellidae,,,,,,spp.
2263,EX2104_Dive03 Hopscotch Seamount,NOAA OER EX2104,2021-07-06 16:33:26 UTC,33.67619,-0.6,-52.993784,-0.5,-1,104.1,8.0994,3.19832,2537.4618,34.95892,bedrock,PH24,5,Animalia,Porifera,Hexactinellida,Hexasterophora,Sceptrulophora,,Farreidae,,Farrea,,,,spp.
2263,EX2104_Dive03 Hopscotch Seamount,NOAA OER EX2104,2021-07-06 16:33:41 UTC,33.676121,-0.6,-52.993875,-0.5,-1,99.3,8.07217,3.19637,2537.2705,34.96028,bedrock,PD08,1,Animalia,Porifera,Demospongiae,,,,,,,,,,spp.
2263,EX2104_Dive03 Hopscotch Seamount,NOAA OER EX2104,2021-07-06 16:34:29 UTC,33.676166,-0.6,-52.993761,-0.5,-1,79.7,8.06726,3.19898,2535.3946,34.95875,bedrock,PH10,3,Animalia,Porifera,Hexactinellida,Hexasterophora,Lyssacinosida,,Euplectellidae,,,,,,spp.
2263,EX2104_Dive03 Hopscotch Seamount,NOAA OER EX2104,2021-07-06 16:34:35 UTC,33.676166,-0.6,-52.993761,-0.5,-1,80,8.09902,3.19926,2535.2453,34.9586,bedrock,PH10,5,Animalia,Porifera,Hexactinellida,Hexasterophora,Lyssacinosida,,Euplectellidae,,,,,,spp.
2263,EX2104_Dive03 Hopscotch Seamount,NOAA OER EX2104,2021-07-06 16:35:17 UTC,33.676105,-0.9,-52.993728,-0.3,-1,108.1,8.11504,3.20433,2533.2092,34.96017,bedrock,PH10,3,Animalia,Porifera,Hexactinellida,Hexasterophora,Lyssacinosida,,Euplectellidae,,,,,,spp.
2263,EX2104_Dive03 Hopscotch Seamount,NOAA OER EX2104,2021-07-06 16:36:03 UTC,33.676161,-0.7,-52.993764,-0.5,-1,104.8,8.09378,3.20667,2531.3843,34.95961,bedrock,PD08,2,Animalia,Porifera,Demospongiae,,,,,,,,,,spp.
2263,EX2104_Dive03 Hopscotch Seamount,NOAA OER EX2104,2021-07-06 16:36:16 UTC,33.67624,-0.4,-52.99371,-0.5,-1,102.2,8.05404,3.20811,2531.1297,34.95961,bedrock,PH24,10,Animalia,Porifera,Hexactinellida,Hexasterophora,Sceptrulophora,,Farreidae,,Farrea,,,,spp.
2263,EX2104_Dive03 Hopscotch Seamount,NOAA OER EX2104,2021-07-06 16:36:16 UTC,33.67624,-0.4,-52.99371,-0.5,-1,102.2,8.05404,3.20811,2531.1297,34.95961,bedrock,PH10,1,Animalia,Porifera,Hexactinellida,Hexasterophora,Lyssacinosida,,Euplectellidae,,,,,,spp.
2263,EX2104_Dive03 Hopscotch Seamount,NOAA OER EX2104,2021-07-06 16:37:14 UTC,33.676267,-0.7,-52.993698,-0.5,-1,116.2,8.08093,3.22793,2529.0044,34.96,bedrock,CAO21,1,Animalia,Cnidaria,Anthozoa,Octocorallia,Scleralcyonacea,,Keratoisididae,,,,,,spp.
2263,EX2104_Dive03 Hopscotch Seamount,NOAA OER EX2104,2021-07-06 16:37:19 UTC,33.676267,-0.6,-52.993698,-0.5,-1,115.9,8.04835,3.22665,2528.8992,34.96056,bedrock,PH39,1,Animalia,Porifera,Hexactinellida,Hexasterophora,Sceptrulophora,,Farreidae,,Farrea,,,,spp.
2263,EX2104_Dive03 Hopscotch Seamount,NOAA OER EX2104,2021-07-06 16:37:38 UTC,33.67623,-0.5,-52.993729,-0.6,-1,107.7,8.10806,3.22681,2528.7532,34.96094,bedrock,PH24,15,Animalia,Porifera,Hexactinellida,Hexasterophora,Sceptrulophora,,Farreidae,,Farrea,,,,spp.
2263,EX2104_Dive03 Hopscotch Seamount,NOAA OER EX2104,2021-07-06 16:38:10 UTC,33.676238,-0.5,-52.993778,-0.5,-1,100.6,8.08375,3.23049,2527.4393,34.95937,bedrock,PH10,2,Animalia,Porifera,Hexactinellida,Hexasterophora,Lyssacinosida,,Euplectellidae,,,,,,spp.
2263,EX2104_Dive03 Hopscotch Seamount,NOAA OER EX2104,2021-07-06 16:38:11 UTC,33.676238,-0.6,-52.993778,-0.4,-1,100.2,8.10012,3.22999,2527.3867,34.95992,bedrock,PH10,3,Animalia,Porifera,Hexactinellida,Hexasterophora,Lyssacinosida,,Euplectellidae,,,,,,spp.
2263,EX2104_Dive03 Hopscotch Seamount,NOAA OER EX2104,2021-07-06 16:38:16 UTC,33.676328,-0.6,-52.993713,-0.6,-1,96.3,8.05949,3.23032,2527.0305,34.96008,bedrock,PD08,2,Animalia,Porifera,Demospongiae,,,,,,,,,,spp.
2263,EX2104_Dive03 Hopscotch Seamount,NOAA OER EX2104,2021-07-06 16:38:18 UTC,33.676328,-0.5,-52.993713,-0.5,-1,95.5,8.0642,3.2306,2526.931,34.95984,bedrock,PH10,3,Animalia,Porifera,Hexactinellida,Hexasterophora,Lyssacinosida,,Euplectellidae,,,,,,spp.
2263,EX2104_Dive03 Hopscotch Seamount,NOAA OER EX2104,2021-07-06 16:38:37 UTC,33.67626,-0.3,-52.993716,-0.5,55.2,86.7,8.1049,3.23049,2526.124,34.96033,bedrock,CAO21,1,Animalia,Cnidaria,Anthozoa,Octocorallia,Scleralcyonacea,,Keratoisididae,,,,,,spp.
2263,EX2104_Dive03 Hopscotch Seamount,NOAA OER EX2104,2021-07-06 16:39:00 UTC,33.676251,-0.6,-52.993766,-0.5,56.6,87.1,8.05506,3.23422,2524.898,34.96048,bedrock,PH27,1,Animalia,Porifera,Hexactinellida,Hexasterophora,Sceptrulophora,,Euretidae,Chonelasmatinae,Chonelasma,,,,sp.
2263,EX2104_Dive03 Hopscotch Seamount,NOAA OER EX2104,2021-07-06 16:39:00 UTC,33.676251,-0.6,-52.993766,-0.5,56.6,87.1,8.05506,3.23422,2524.898,34.96048,bedrock,PH10,5,Animalia,Porifera,Hexactinellida,Hexasterophora,Lyssacinosida,,Euplectellidae,,,,,,spp.
2263,EX2104_Dive03 Hopscotch Seamount,NOAA OER EX2104,2021-07-06 16:39:41 UTC,33.67628,-0.5,-52.993755,-0.5,44.1,104.3,8.08224,3.24557,2524.0418,34.95791,bedrock,CAO46,2,Animalia,Cnidaria,Anthozoa,Octocorallia,Scleralcyonacea,,Keratoisididae,Keratoisidinae,"""J-clade""",,,,sp.
2263,EX2104_Dive03 Hopscotch Seamount,NOAA OER EX2104,2021-07-06 16:43:09 UTC,33.676213,-0.7,-52.993747,-0.3,-1,134,8.05858,3.23249,2523.884,34.96031,bedrock,PH24,10,Animalia,Porifera,Hexactinellida,Hexasterophora,Sceptrulophora,,Farreidae,,Farrea,,,,spp.
2263,EX2104_Dive03 Hopscotch Seamount,NOAA OER EX2104,2021-07-06 16:43:31 UTC,33.676254,-0.7,-52.993725,-0.5,-1,150.7,8.07939,3.23666,2523.8963,34.95942,bedrock,PD08,4,Animalia,Porifera,Demospongiae,,,,,,,,,,spp.
2263,EX2104_Dive03 Hopscotch Seamount,NOAA OER EX2104,2021-07-06 16:43:31 UTC,33.676254,-0.7,-52.993725,-0.5,-1,150.7,8.07939,3.23666,2523.8963,34.95942,bedrock,PH07,1,Animalia,Porifera,Hexactinellida,Hexasterophora,Sceptrulophora,,,,,,,,spp.
2263,EX2104_Dive03 Hopscotch Seamount,NOAA OER EX2104,2021-07-06 16:44:02 UTC,33.676159,-0.5,-52.993776,-0.5,-1,167.4,8.11552,3.23366,2523.7029,34.96106,bedrock,PH39,1,Animalia,Porifera,Hexactinellida,Hexasterophora,Sceptrulophora,,Farreidae,,Farrea,,,,spp.
2263,EX2104_Dive03 Hopscotch Seamount,NOAA OER EX2104,2021-07-06 16:44:02 UTC,33.676159,-0.5,-52.993776,-0.5,-1,167.4,8.11552,3.23366,2523.7029,34.96106,bedrock,PH10,1,Animalia,Porifera,Hexactinellida,Hexasterophora,Lyssacinosida,,Euplectellidae,,,,,,spp.
2263,EX2104_Dive03 Hopscotch Seamount,NOAA OER EX2104,2021-07-06 16:46:16 UTC,33.676231,-0.5,-52.993753,0,-1,114.9,8.09133,3.23255,2521.9659,34.95792,bedrock,CAO02,2,Animalia,Cnidaria,Anthozoa,Octocorallia,Scleralcyonacea,,Keratoisididae,,"""Lepdisis""",,,,spp.
2263,EX2104_Dive03 Hopscotch Seamount,NOAA OER EX2104,2021-07-06 16:46:36 UTC,33.676175,-0.2,-52.993726,-0.4,-1,99.3,8.07908,3.23511,2519.8258,34.96014,bedrock,PH10,1,Animalia,Porifera,Hexactinellida,Hexasterophora,Lyssacinosida,,Euplectellidae,,,,,,spp.
2263,EX2104_Dive03 Hopscotch Seamount,NOAA OER EX2104,2021-07-06 16:46:42 UTC,33.676294,-0.6,-52.993761,-0.5,-1,97.6,8.12288,3.23533,2518.8512,34.96078,bedrock,CAO46,3,Animalia,Cnidaria,Anthozoa,Octocorallia,Scleralcyonacea,,Keratoisididae,Keratoisidinae,"""J-clade""",,,,sp.
2263,EX2104_Dive03 Hopscotch Seamount,NOAA OER EX2104,2021-07-06 16:46:58 UTC,33.676192,0.3,-52.993854,-0.1,-1,101.5,8.10167,3.23221,2517.1535,34.96155,bedrock,PH10,3,Animalia,Porifera,Hexactinellida,Hexasterophora,Lyssacinosida,,Euplectellidae,,,,,,spp.
2263,EX2104_Dive03 Hopscotch Seamount,NOAA OER EX2104,2021-07-06 16:47:20 UTC,33.676148,-0.4,-52.993804,-0.2,-1,99.6,8.10125,3.23093,2515.3685,34.96057,bedrock,PD08,1,Animalia,Porifera,Demospongiae,,,,,,,,,,spp.
2263,EX2104_Dive03 Hopscotch Seamount,NOAA OER EX2104,2021-07-06 16:47:49 UTC,33.676021,-0.5,-52.993744,-0.6,-1,74.5,8.08592,3.22932,2514.0995,34.96013,bedrock,PH24,2,Animalia,Porifera,Hexactinellida,Hexasterophora,Sceptrulophora,,Farreidae,,Farrea,,,,spp.
2263,EX2104_Dive03 Hopscotch Seamount,NOAA OER EX2104,2021-07-06 16:47:53 UTC,33.675959,-0.5,-52.993739,-0.6,-1,74.7,8.06927,3.22954,2513.7935,34.95996,bedrock,PH39,1,Animalia,Porifera,Hexactinellida,Hexasterophora,Sceptrulophora,,Farreidae,,Farrea,,,,spp.
2263,EX2104_Dive03 Hopscotch Seamount,NOAA OER EX2104,2021-07-06 16:48:12 UTC,33.675944,-0.1,-52.993783,-0.5,-1,85,8.05645,3.2286,2513.0791,34.95954,bedrock,CAO46,1,Animalia,Cnidaria,Anthozoa,Octocorallia,Scleralcyonacea,,Keratoisididae,Keratoisidinae,"""J-clade""",,,,sp.
2263,EX2104_Dive03 Hopscotch Seamount,NOAA OER EX2104,2021-07-06 16:48:24 UTC,33.676013,-0.5,-52.993901,-0.5,-1,100.6,8.07567,3.22732,2512.6739,34.96079,bedrock,PD03,4,Animalia,Porifera,,,,,,,,,,,spp.
2263,EX2104_Dive03 Hopscotch Seamount,NOAA OER EX2104,2021-07-06 16:55:24 UTC,33.676157,-0.3,-52.993629,-0.5,-1,97.9,8.0988,3.23494,2510.7928,34.96072,bedrock,CAO02,1,Animalia,Cnidaria,Anthozoa,Octocorallia,Scleralcyonacea,,Keratoisididae,,"""Lepdisis""",,,,spp.
2263,EX2104_Dive03 Hopscotch Seamount,NOAA OER EX2104,2021-07-06 16:55:54 UTC,33.676142,-0.5,-52.99372,-0.6,-1,49.1,8.07032,3.23015,2508.4479,34.96047,bedrock,CAO04,2,Animalia,Cnidaria,Anthozoa,Octocorallia,Scleralcyonacea,,Keratoisididae,,,,,,sp.
2263,EX2104_Dive03 Hopscotch Seamount,NOAA OER EX2104,2021-07-06 16:57:33 UTC,33.676185,-0.8,-52.993747,-0.1,-1,92.3,8.11691,3.23755,2509.8243,34.96011,bedrock,CAO46,3,Animalia,Cnidaria,Anthozoa,Octocorallia,Scleralcyonacea,,Keratoisididae,Keratoisidinae,"""J-clade""",,,,sp.
2263,EX2104_Dive03 Hopscotch Seamount,NOAA OER EX2104,2021-07-06 16:58:31 UTC,33.676114,-0.6,-52.993608,-0.5,-1,75.4,8.09605,3.2316,2507.8253,34.96162,bedrock,PH13,1,Animalia,Porifera,,,,,,,,,,,spp.
2263,EX2104_Dive03 Hopscotch Seamount,NOAA OER EX2104,2021-07-06 16:58:37 UTC,33.67599,-0.4,-52.993685,0.1,7.8,80.1,8.09655,3.23394,2507.6875,34.96028,bedrock,CAO46,4,Animalia,Cnidaria,Anthozoa,Octocorallia,Scleralcyonacea,,Keratoisididae,Keratoisidinae,"""J-clade""",,,,sp.
2263,EX2104_Dive03 Hopscotch Seamount,NOAA OER EX2104,2021-07-06 16:58:46 UTC,33.675989,-0.8,-52.99375,-0.4,-1,78.7,8.07498,3.22937,2507.4232,34.95777,bedrock,CAH04,1,Animalia,Cnidaria,Anthozoa,Hexacorallia,Anthiparia,,Schizopathidae,,Bathypathes,,,,spp.
2263,EX2104_Dive03 Hopscotch Seamount,NOAA OER EX2104,2021-07-06 16:58:55 UTC,33.675956,-0.5,-52.993771,-0.5,-1,78.9,8.06271,3.23984,2507.2317,34.96031,bedrock,PH24,1,Animalia,Porifera,Hexactinellida,Hexasterophora,Sceptrulophora,,Farreidae,,Farrea,,,,spp.
2263,EX2104_Dive03 Hopscotch Seamount,NOAA OER EX2104,2021-07-06 17:01:13 UTC,33.676181,-0.5,-52.99357,-0.6,-1,108,8.05492,3.24729,2503.5733,34.96047,bedrock,CAO02,2,Animalia,Cnidaria,Anthozoa,Octocorallia,Scleralcyonacea,,Keratoisididae,,"""Lepdisis""",,,,spp.
2263,EX2104_Dive03 Hopscotch Seamount,NOAA OER EX2104,2021-07-06 17:01:21 UTC,33.67624,-0.7,-52.993505,-0.6,-1,109.5,8.07208,3.24651,2503.4226,34.95961,bedrock,PH10,3,Animalia,Porifera,Hexactinellida,Hexasterophora,Lyssacinosida,,Euplectellidae,,,,,,spp.
2263,EX2104_Dive03 Hopscotch Seamount,NOAA OER EX2104,2021-07-06 17:01:34 UTC,33.676177,-0.2,-52.993623,-0.3,-1,109.6,8.07189,3.24557,2503.1677,34.96051,bedrock,PH24,1,Animalia,Porifera,Hexactinellida,Hexasterophora,Sceptrulophora,,Farreidae,,Farrea,,,,spp.
2263,EX2104_Dive03 Hopscotch Seamount,NOAA OER EX2104,2021-07-06 17:13:28 UTC,33.676258,-0.6,-52.993549,-0.5,3,81.4,8.05044,3.22809,2498.6885,34.96009,bedrock,CAO46,1,Animalia,Cnidaria,Anthozoa,Octocorallia,Scleralcyonacea,,Keratoisididae,Keratoisidinae,"""J-clade""",,,,sp.
2263,EX2104_Dive03 Hopscotch Seamount,NOAA OER EX2104,2021-07-06 17:13:29 UTC,33.676258,-0.6,-52.993549,-0.5,3,81.7,8.0285,3.22904,2498.6357,34.96045,bedrock,CAO02,3,Animalia,Cnidaria,Anthozoa,Octocorallia,Scleralcyonacea,,Keratoisididae,,"""Lepdisis""",,,,spp.
2263,EX2104_Dive03 Hopscotch Seamount,NOAA OER EX2104,2021-07-06 17:14:15 UTC,33.676217,-0.9,-52.993335,-0.8,4.8,76.7,8.06378,3.22654,2498.5004,34.96077,bedrock,PH10,1,Animalia,Porifera,Hexactinellida,Hexasterophora,Lyssacinosida,,Euplectellidae,,,,,,spp.
2263,EX2104_Dive03 Hopscotch Seamount,NOAA OER EX2104,2021-07-06 17:15:14 UTC,33.676297,-0.8,-52.993388,-0.4,7.5,11.4,8.06173,3.2311,2499.7086,34.96101,bedrock,CAO21,2,Animalia,Cnidaria,Anthozoa,Octocorallia,Scleralcyonacea,,Keratoisididae,,,,,,spp.
2263,EX2104_Dive03 Hopscotch Seamount,NOAA OER EX2104,2021-07-06 17:16:17 UTC,33.676066,-0.7,-52.993448,-0.8,3.4,28.3,8.07578,3.22336,2501.425,34.96057,bedrock,CAO10,1,Animalia,Cnidaria,Anthozoa,Octocorallia,Scleralcyonacea,,Coralliidae,Anthomastinae,,,,,sp.
2263,EX2104_Dive03 Hopscotch Seamount,NOAA OER EX2104,2021-07-06 17:22:03 UTC,33.676303,-0.1,-52.993237,-0.4,2.2,25.7,8.09434,3.22398,2501.7775,34.95976,bedrock,CAH04,3,Animalia,Cnidaria,Anthozoa,Hexacorallia,Anthiparia,,Schizopathidae,,Bathypathes,,,,spp.
2263,EX2104_Dive03 Hopscotch Seamount,NOAA OER EX2104,2021-07-06 17:22:03 UTC,33.676303,-0.1,-52.993237,-0.4,2.2,25.7,8.09434,3.22398,2501.7775,34.95976,bedrock,PD08,1,Animalia,Porifera,Demospongiae,,,,,,,,,,spp.
2263,EX2104_Dive03 Hopscotch Seamount,NOAA OER EX2104,2021-07-06 17:22:32 UTC,33.676292,-0.4,-52.993312,-0.5,4.5,11.6,8.07834,3.22181,2499.6814,34.96015,bedrock,CAO46,9,Animalia,Cnidaria,Anthozoa,Octocorallia,Scleralcyonacea,,Keratoisididae,Keratoisidinae,"""J-clade""",,,,sp.
2263,EX2104_Dive03 Hopscotch Seamount,NOAA OER EX2104,2021-07-06 17:22:37 UTC,33.676271,-0.2,-52.993368,-0.4,4.8,12,8.08966,3.23405,2499.5158,34.96192,bedrock,CAH04,1,Animalia,Cnidaria,Anthozoa,Hexacorallia,Anthiparia,,Schizopathidae,,Bathypathes,,,,spp.
2263,EX2104_Dive03 Hopscotch Seamount,NOAA OER EX2104,2021-07-06 17:22:38 UTC,33.676271,-0.4,-52.993368,-0.3,4.8,12.7,8.05833,3.23839,2499.4091,34.96273,bedrock,PH32,1,Animalia,Porifera,Hexactinellida,Hexasterophora,Sceptrulophora,,Euretidae,,,,,,spp.
2263,EX2104_Dive03 Hopscotch Seamount,NOAA OER EX2104,2021-07-06 17:22:50 UTC,33.676271,-0.5,-52.993368,-0.4,5.3,25.6,8.08045,3.24952,2498.4439,34.95785,bedrock,PD03,1,Animalia,Porifera,,,,,,,,,,,spp.
2263,EX2104_Dive03 Hopscotch Seamount,NOAA OER EX2104,2021-07-06 17:22:52 UTC,33.676271,-0.3,-52.993368,-0.4,5.4,29.3,8.05129,3.24462,2498.2578,34.9605,bedrock,CAO02,1,Animalia,Cnidaria,Anthozoa,Octocorallia,Scleralcyonacea,,Keratoisididae,,"""Lepdisis""",,,,spp.
2263,EX2104_Dive03 Hopscotch Seamount,NOAA OER EX2104,2021-07-06 17:23:29 UTC,33.6763,-0.1,-52.993345,-0.2,-1,78.8,8.13573,3.24301,2497.3484,34.96128,bedrock,PH10,1,Animalia,Porifera,Hexactinellida,Hexasterophora,Lyssacinosida,,Euplectellidae,,,,,,spp.
2263,EX2104_Dive03 Hopscotch Seamount,NOAA OER EX2104,2021-07-06 17:24:22 UTC,33.676233,-0.7,-52.993375,-0.3,10.1,73.9,8.10724,3.27093,2496.1016,34.96206,bedrock,CAO11,1,Animalia,Cnidaria,Anthozoa,Octocorallia,Scleralcyonacea,,Chrysogorgiidae,,Chrysogorgia,,,,spp.
2263,EX2104_Dive03 Hopscotch Seamount,NOAA OER EX2104,2021-07-06 17:26:43 UTC,33.676233,-0.2,-52.993179,0.3,5.5,47.9,8.09468,3.25897,2495.8147,34.96132,bedrock,CAO46,5,Animalia,Cnidaria,Anthozoa,Octocorallia,Scleralcyonacea,,Keratoisididae,Keratoisidinae,"""J-clade""",,,,sp.
2263,EX2104_Dive03 Hopscotch Seamount,NOAA OER EX2104,2021-07-06 17:26:44 UTC,33.676233,-0.4,-52.993179,-0.4,5.4,49,8.0587,3.25586,2495.7416,34.96218,bedrock,PD08,1,Animalia,Porifera,Demospongiae,,,,,,,,,,spp.
2263,EX2104_Dive03 Hopscotch Seamount,NOAA OER EX2104,2021-07-06 17:27:00 UTC,33.676233,-0.6,-52.993179,-0.1,5.3,69,8.06383,3.26704,2495.8011,34.96272,bedrock,CAO02,1,Animalia,Cnidaria,Anthozoa,Octocorallia,Scleralcyonacea,,Keratoisididae,,"""Lepdisis""",,,,spp.
2263,EX2104_Dive03 Hopscotch Seamount,NOAA OER EX2104,2021-07-06 17:28:28 UTC,33.676287,-0.5,-52.993156,-0.4,4.4,73.1,8.10891,3.26954,2494.1835,34.96252,bedrock,CAO46,1,Animalia,Cnidaria,Anthozoa,Octocorallia,Scleralcyonacea,,Keratoisididae,Keratoisidinae,"""J-clade""",,,,sp.
2263,EX2104_Dive03 Hopscotch Seamount,NOAA OER EX2104,2021-07-06 17:28:35 UTC,33.676187,-0.3,-52.993128,-0.8,2.7,105.6,8.0887,3.27949,2494.0849,34.9582,bedrock,PH10,3,Animalia,Porifera,Hexactinellida,Hexasterophora,Lyssacinosida,,Euplectellidae,,,,,,spp.
2263,EX2104_Dive03 Hopscotch Seamount,NOAA OER EX2104,2021-07-06 17:29:27 UTC,33.676251,-0.5,-52.993137,-0.4,2.9,152.1,8.09327,3.2786,2496.1387,34.96455,bedrock,PH10,1,Animalia,Porifera,Hexactinellida,Hexasterophora,Lyssacinosida,,Euplectellidae,,,,,,spp.
2263,EX2104_Dive03 Hopscotch Seamount,NOAA OER EX2104,2021-07-06 17:38:02 UTC,33.676187,-0.5,-52.993097,-0.4,5.7,111.1,8.03932,3.27393,2494.3661,34.96181,bedrock,CAO46,7,Animalia,Cnidaria,Anthozoa,Octocorallia,Scleralcyonacea,,Keratoisididae,Keratoisidinae,"""J-clade""",,,,sp.
2263,EX2104_Dive03 Hopscotch Seamount,NOAA OER EX2104,2021-07-06 17:39:43 UTC,33.676224,-0.7,-52.993047,-0.5,2.7,86.1,8.09982,3.29161,2491.9681,34.96128,bedrock,CAO02,3,Animalia,Cnidaria,Anthozoa,Octocorallia,Scleralcyonacea,,Keratoisididae,,"""Lepdisis""",,,,spp.
2263,EX2104_Dive03 Hopscotch Seamount,NOAA OER EX2104,2021-07-06 17:39:50 UTC,33.67615,-0.7,-52.993097,-0.4,2.5,78.1,8.07244,3.28366,2491.9159,34.96399,bedrock,PH10,1,Animalia,Porifera,Hexactinellida,Hexasterophora,Lyssacinosida,,Euplectellidae,,,,,,spp.
2263,EX2104_Dive03 Hopscotch Seamount,NOAA OER EX2104,2021-07-06 17:40:58 UTC,33.676248,-0.6,-52.993083,-0.5,3,22.6,8.06959,3.23761,2491.3714,34.96119,bedrock,PD03,1,Animalia,Porifera,,,,,,,,,,,spp.
2263,EX2104_Dive03 Hopscotch Seamount,NOAA OER EX2104,2021-07-06 17:41:28 UTC,33.676255,-0.7,-52.992977,-0.5,2.7,18.9,8.08257,3.2449,2491.5792,34.96155,bedrock,CAO46,6,Animalia,Cnidaria,Anthozoa,Octocorallia,Scleralcyonacea,,Keratoisididae,Keratoisidinae,"""J-clade""",,,,sp.
2263,EX2104_Dive03 Hopscotch Seamount,NOAA OER EX2104,2021-07-06 17:44:56 UTC,33.676237,-0.2,-52.993138,-0.5,2.1,35.8,8.06878,3.27571,2491.006,34.95905,bedrock,PH75,1,Animalia,Porifera,Hexactinellida,Hexasterophora,Lyssacinosida,,Rossellidae,,,,,,spp.
2263,EX2104_Dive03 Hopscotch Seamount,NOAA OER EX2104,2021-07-06 17:47:20 UTC,33.676331,-0.3,-52.99297,-0.5,4.2,43.5,8.11416,3.26526,2488.947,34.95916,bedrock,PH13,3,Animalia,Porifera,,,,,,,,,,,spp.
2263,EX2104_Dive03 Hopscotch Seamount,NOAA OER EX2104,2021-07-06 17:47:46 UTC,33.676101,-0.7,-52.993081,-0.5,6.3,53.9,8.06313,3.27254,2487.1784,34.96451,bedrock,CAO46,1,Animalia,Cnidaria,Anthozoa,Octocorallia,Scleralcyonacea,,Keratoisididae,Keratoisidinae,"""J-clade""",,,,sp.
2263,EX2104_Dive03 Hopscotch Seamount,NOAA OER EX2104,2021-07-06 17:48:34 UTC,33.676294,-0.6,-52.992924,-0.4,3.5,76.5,8.04884,3.25208,2487.5599,34.96232,bedrock,PD10,1,Animalia,Porifera,Demospongiae,,,,,,,,,,spp.
2263,EX2104_Dive03 Hopscotch Seamount,NOAA OER EX2104,2021-07-06 17:48:50 UTC,33.676294,-0.3,-52.992924,-0.4,2.9,66.2,8.06863,3.26798,2487.8681,34.96121,bedrock,CAO02,1,Animalia,Cnidaria,Anthozoa,Octocorallia,Scleralcyonacea,,Keratoisididae,,"""Lepdisis""",,,,spp.
2263,EX2104_Dive03 Hopscotch Seamount,NOAA OER EX2104,2021-07-06 17:48:58 UTC,33.676391,-0.5,-52.992923,-0.5,2.9,43.9,8.02796,3.25424,2487.9764,34.96573,bedrock,PD08,4,Animalia,Porifera,Demospongiae,,,,,,,,,,spp.
2263,EX2104_Dive03 Hopscotch Seamount,NOAA OER EX2104,2021-07-06 17:49:07 UTC,33.676391,-0.7,-52.992923,-0.5,2.7,34.6,8.06518,3.26492,2488.1788,34.96078,bedrock,PH10,5,Animalia,Porifera,Hexactinellida,Hexasterophora,Lyssacinosida,,Euplectellidae,,,,,,spp.
2263,EX2104_Dive03 Hopscotch Seamount,NOAA OER EX2104,2021-07-06 17:49:11 UTC,33.676391,-0.5,-52.992923,-0.4,2,31.2,8.08184,3.2632,2488.2868,34.95442,bedrock,CAO11,1,Animalia,Cnidaria,Anthozoa,Octocorallia,Scleralcyonacea,,Chrysogorgiidae,,Chrysogorgia,,,,spp.
2263,EX2104_Dive03 Hopscotch Seamount,NOAA OER EX2104,2021-07-06 17:49:57 UTC,33.676291,-0.9,-52.99293,-0.3,2.6,25.8,8.09141,3.2573,2488.3436,34.96213,bedrock,PD08,3,Animalia,Porifera,Demospongiae,,,,,,,,,,spp.
2263,EX2104_Dive03 Hopscotch Seamount,NOAA OER EX2104,2021-07-06 17:50:14 UTC,33.676306,-0.7,-52.992908,-0.4,2,23.4,8.04051,3.25552,2488.5551,34.96306,bedrock,CAO21,1,Animalia,Cnidaria,Anthozoa,Octocorallia,Scleralcyonacea,,Keratoisididae,,,,,,spp.
2263,EX2104_Dive03 Hopscotch Seamount,NOAA OER EX2104,2021-07-06 17:51:03 UTC,33.676348,-0.5,-52.992911,-0.5,1.2,41.2,8.05184,3.2508,2488.9251,34.96163,bedrock,CAO07,1,Animalia,Cnidaria,Anthozoa,Octocorallia,Scleralcyonacea,,Coralliidae,,Hemicorallium,,,,sp.
2263,EX2104_Dive03 Hopscotch Seamount,NOAA OER EX2104,2021-07-06 17:51:44 UTC,33.676307,-0.6,-52.992902,-0.4,1.5,46.2,8.04249,3.24968,2488.8351,34.9613,bedrock,CAH30,1,Animalia,Cnidaria,Anthozoa,Hexacorallia,Anthiparia,,Schizopathidae,,Bathypathes,,,,sp.
2263,EX2104_Dive03 Hopscotch Seamount,NOAA OER EX2104,2021-07-06 17:51:54 UTC,33.676307,-0.7,-52.992902,-0.4,2.1,46,8.06642,3.25413,2488.7328,34.96234,bedrock,PH24,3,Animalia,Porifera,Hexactinellida,Hexasterophora,Sceptrulophora,,Farreidae,,Farrea,,,,spp.
2263,EX2104_Dive03 Hopscotch Seamount,NOAA OER EX2104,2021-07-06 17:51:55 UTC,33.676307,-0.9,-52.992902,-0.5,2.1,45.7,8.05084,3.25063,2488.7334,34.9626,bedrock,PH13,2,Animalia,Porifera,,,,,,,,,,,spp.
2263,EX2104_Dive03 Hopscotch Seamount,NOAA OER EX2104,2021-07-06 17:52:19 UTC,33.676325,-0.6,-52.992972,-0.4,4,38.3,8.07802,3.2528,2487.4597,34.96147,bedrock,CAO46,3,Animalia,Cnidaria,Anthozoa,Octocorallia,Scleralcyonacea,,Keratoisididae,Keratoisidinae,"""J-clade""",,,,sp.
2263,EX2104_Dive03 Hopscotch Seamount,NOAA OER EX2104,2021-07-06 17:52:22 UTC,33.676325,-0.5,-52.992972,-0.4,4.1,39.7,8.05939,3.25363,2487.3063,34.9615,bedrock,CAO11,1,Animalia,Cnidaria,Anthozoa,Octocorallia,Scleralcyonacea,,Chrysogorgiidae,,Chrysogorgia,,,,spp.
2263,EX2104_Dive03 Hopscotch Seamount,NOAA OER EX2104,2021-07-06 17:52:57 UTC,33.676347,-0.6,-52.992907,-0.5,3.8,76.2,8.06127,3.25636,2486.7939,34.96174,bedrock,CAO46,5,Animalia,Cnidaria,Anthozoa,Octocorallia,Scleralcyonacea,,Keratoisididae,Keratoisidinae,"""J-clade""",,,,sp.
2263,EX2104_Dive03 Hopscotch Seamount,NOAA OER EX2104,2021-07-06 17:53:59 UTC,33.676307,-0.5,-52.992903,-0.4,4.3,44.4,8.06084,3.25864,2486.8504,34.96198,bedrock,CAO02,1,Animalia,Cnidaria,Anthozoa,Octocorallia,Scleralcyonacea,,Keratoisididae,,"""Lepdisis""",,,,spp.
2263,EX2104_Dive03 Hopscotch Seamount,NOAA OER EX2104,2021-07-06 17:53:59 UTC,33.676307,-0.5,-52.992903,-0.4,4.3,44.4,8.06084,3.25864,2486.8504,34.96198,bedrock,PD03,1,Animalia,Porifera,,,,,,,,,,,spp.
2263,EX2104_Dive03 Hopscotch Seamount,NOAA OER EX2104,2021-07-06 17:54:33 UTC,33.676176,-0.5,-52.992962,-0.2,4.9,41.2,8.10053,3.25347,2487.0663,34.96214,bedrock,CAO13,1,Animalia,Cnidaria,Anthozoa,Octocorallia,Scleralcyonacea,,Keratoisididae,Keratoisidinae,Eknomisis,,,,sp.
2263,EX2104_Dive03 Hopscotch Seamount,NOAA OER EX2104,2021-07-06 17:55:24 UTC,33.676273,-0.6,-52.993028,-0.5,6.2,10.4,8.04969,3.25241,2487.2256,34.96142,bedrock,PH24,1,Animalia,Porifera,Hexactinellida,Hexasterophora,Sceptrulophora,,Farreidae,,Farrea,,,,spp.
2263,EX2104_Dive03 Hopscotch Seamount,NOAA OER EX2104,2021-07-06 17:55:29 UTC,33.676273,-0.7,-52.993028,-0.5,6.2,4.6,8.04945,3.2484,2487.3001,34.96196,bedrock,CAH04,1,Animalia,Cnidaria,Anthozoa,Hexacorallia,Anthiparia,,Schizopathidae,,Bathypathes,,,,spp.
2263,EX2104_Dive03 Hopscotch Seamount,NOAA OER EX2104,2021-07-06 17:56:18 UTC,33.676304,-0.7,-52.992896,-0.3,5.8,352.7,8.07058,3.25157,2487.3376,34.96155,bedrock,PH32,1,Animalia,Porifera,Hexactinellida,Hexasterophora,Sceptrulophora,,Euretidae,,,,,,spp.
2263,EX2104_Dive03 Hopscotch Seamount,NOAA OER EX2104,2021-07-06 17:56:54 UTC,33.676346,-0.7,-52.99293,-0.4,5.6,329.7,8.08074,3.25391,2487.7119,34.96172,bedrock,PH33,1,Animalia,Porifera,Hexactinellida,Hexasterophora,Sceptrulophora,,Euretidae,Chonelasmatinae,Chonelasma,,,,spp.
2263,EX2104_Dive03 Hopscotch Seamount,NOAA OER EX2104,2021-07-06 17:57:02 UTC,33.676346,-0.7,-52.99293,-0.5,5.1,331,8.07462,3.25302,2487.8697,34.96188,bedrock,PH24,1,Animalia,Porifera,Hexactinellida,Hexasterophora,Sceptrulophora,,Farreidae,,Farrea,,,,spp.
2263,EX2104_Dive03 Hopscotch Seamount,NOAA OER EX2104,2021-07-06 17:57:12 UTC,33.676327,-0.5,-52.992926,-0.5,5.5,333.1,8.07688,3.25597,2487.9747,34.96147,bedrock,CAO07,1,Animalia,Cnidaria,Anthozoa,Octocorallia,Scleralcyonacea,,Coralliidae,,Hemicorallium,,,,sp.
2263,EX2104_Dive03 Hopscotch Seamount,NOAA OER EX2104,2021-07-06 17:58:01 UTC,33.676292,-0.4,-52.992951,-0.5,5.2,342.9,8.06042,3.25424,2487.8264,34.96188,bedrock,P14,2,Animalia,Porifera,,,,,,,,,,,sp.
2263,EX2104_Dive03 Hopscotch Seamount,NOAA OER EX2104,2021-07-06 17:59:12 UTC,33.676309,-0.6,-52.992956,-0.6,4.2,296.4,8.04601,3.2563,2488.0351,34.96193,bedrock,PH53,1,Animalia,Porifera,Hexactinellida,Hexasterophora,Lyssacinosida,,Euplectellidae,Bolosominae,,,,,sp.
2263,EX2104_Dive03 Hopscotch Seamount,NOAA OER EX2104,2021-07-06 17:59:12 UTC,33.676309,-0.6,-52.992956,-0.6,4.2,296.4,8.04601,3.2563,2488.0351,34.96193,bedrock,CAO14,1,Animalia,Cnidaria,Anthozoa,Octocorallia,,,,,,,,,sp.
2263,EX2104_Dive03 Hopscotch Seamount,NOAA OER EX2104,2021-07-06 17:59:12 UTC,33.676309,-0.4,-52.992956,-0.5,4.3,297.6,8.09755,3.25586,2488.0353,34.96085,bedrock,CAH30,1,Animalia,Cnidaria,Anthozoa,Hexacorallia,Anthiparia,,Schizopathidae,,Bathypathes,,,,sp.
2263,EX2104_Dive03 Hopscotch Seamount,NOAA OER EX2104,2021-07-06 17:59:58 UTC,33.676255,-0.5,-52.992913,-0.5,5.6,0.2,8.01828,3.25825,2487.584,34.96135,bedrock,PD10,1,Animalia,Porifera,Demospongiae,,,,,,,,,,spp.
2263,EX2104_Dive03 Hopscotch Seamount,NOAA OER EX2104,2021-07-06 18:00:08 UTC,33.676323,-0.5,-52.992951,-0.6,6.1,7.1,8.0938,3.25875,2487.4316,34.96124,bedrock,PH10,1,Animalia,Porifera,Hexactinellida,Hexasterophora,Lyssacinosida,,Euplectellidae,,,,,,spp.
2263,EX2104_Dive03 Hopscotch Seamount,NOAA OER EX2104,2021-07-06 18:00:50 UTC,33.676355,-0.4,-52.992876,-0.5,8.1,44,8.08112,3.25352,2484.3584,34.9625,bedrock,CAO11,1,Animalia,Cnidaria,Anthozoa,Octocorallia,Scleralcyonacea,,Chrysogorgiidae,,Chrysogorgia,,,,spp.
2263,EX2104_Dive03 Hopscotch Seamount,NOAA OER EX2104,2021-07-06 18:01:22 UTC,33.676364,-0.4,-52.992856,-0.7,3.6,48,8.07362,3.27321,2482.2111,34.96184,bedrock,CAO02,3,Animalia,Cnidaria,Anthozoa,Octocorallia,Scleralcyonacea,,Keratoisididae,,"""Lepdisis""",,,,spp.
2263,EX2104_Dive03 Hopscotch Seamount,NOAA OER EX2104,2021-07-06 18:01:47 UTC,33.676338,-0.5,-52.992875,-0.6,6.7,350.6,8.05035,3.26893,2483.0354,34.96141,bedrock,CAO46,8,Animalia,Cnidaria,Anthozoa,Octocorallia,Scleralcyonacea,,Keratoisididae,Keratoisidinae,"""J-clade""",,,,sp.
2263,EX2104_Dive03 Hopscotch Seamount,NOAA OER EX2104,2021-07-06 18:02:17 UTC,33.676345,-0.6,-52.99283,-0.3,4.4,28.4,8.06248,3.27616,2483.6587,34.96234,bedrock,PH10,5,Animalia,Porifera,Hexactinellida,Hexasterophora,Lyssacinosida,,Euplectellidae,,,,,,spp.
2263,EX2104_Dive03 Hopscotch Seamount,NOAA OER EX2104,2021-07-06 18:10:07 UTC,33.676457,-0.3,-52.99279,-0.4,1.8,37.5,8.04709,3.27082,2485.1182,34.95971,bedrock,PH24,2,Animalia,Porifera,Hexactinellida,Hexasterophora,Sceptrulophora,,Farreidae,,Farrea,,,,spp.
2263,EX2104_Dive03 Hopscotch Seamount,NOAA OER EX2104,2021-07-06 18:10:26 UTC,33.676472,-0.6,-52.9928,-0.5,1.6,65.4,8.11315,3.27271,2484.5032,34.96299,bedrock,PH10,1,Animalia,Porifera,Hexactinellida,Hexasterophora,Lyssacinosida,,Euplectellidae,,,,,,spp.
2263,EX2104_Dive03 Hopscotch Seamount,NOAA OER EX2104,2021-07-06 18:10:43 UTC,33.676425,-0.5,-52.992877,-0.1,2.3,56.9,8.04536,3.28005,2484.4032,34.96246,bedrock,CAO11,1,Animalia,Cnidaria,Anthozoa,Octocorallia,Scleralcyonacea,,Chrysogorgiidae,,Chrysogorgia,,,,spp.
2263,EX2104_Dive03 Hopscotch Seamount,NOAA OER EX2104,2021-07-06 18:10:45 UTC,33.676425,-0.4,-52.992877,-0.4,2.3,56.9,8.11123,3.27788,2484.4032,34.96327,bedrock,CAO46,3,Animalia,Cnidaria,Anthozoa,Octocorallia,Scleralcyonacea,,Keratoisididae,Keratoisidinae,"""J-clade""",,,,sp.
2263,EX2104_Dive03 Hopscotch Seamount,NOAA OER EX2104,2021-07-06 18:11:00 UTC,33.676477,-0.4,-52.992815,-0.1,2.2,57.5,8.07576,3.27805,2484.5046,34.9676,bedrock,PH10,1,Animalia,Porifera,Hexactinellida,Hexasterophora,Lyssacinosida,,Euplectellidae,,,,,,spp.
2263,EX2104_Dive03 Hopscotch Seamount,NOAA OER EX2104,2021-07-06 18:11:29 UTC,33.676388,-0.2,-52.992653,0.1,3.4,81.8,8.09424,3.28422,2484.2549,34.96305,bedrock,CAO02,2,Animalia,Cnidaria,Anthozoa,Octocorallia,Scleralcyonacea,,Keratoisididae,,"""Lepdisis""",,,,spp.
2263,EX2104_Dive03 Hopscotch Seamount,NOAA OER EX2104,2021-07-06 18:12:09 UTC,33.676316,-0.6,-52.992728,-0.2,5.6,41,8.07401,3.28878,2482.8248,34.96319,bedrock,PH10,7,Animalia,Porifera,Hexactinellida,Hexasterophora,Lyssacinosida,,Euplectellidae,,,,,,spp.
2263,EX2104_Dive03 Hopscotch Seamount,NOAA OER EX2104,2021-07-06 18:12:35 UTC,33.676366,-0.2,-52.99258,-0.4,4.4,44.3,8.04689,3.28783,2481.3383,34.96382,bedrock,PD03,2,Animalia,Porifera,,,,,,,,,,,spp.
2263,EX2104_Dive03 Hopscotch Seamount,NOAA OER EX2104,2021-07-06 18:12:53 UTC,33.676254,-0.4,-52.992651,-0.3,4,25.8,8.05223,3.288,2480.4198,34.96267,bedrock,CAO02,1,Animalia,Cnidaria,Anthozoa,Octocorallia,Scleralcyonacea,,Keratoisididae,,"""Lepdisis""",,,,spp.
2263,EX2104_Dive03 Hopscotch Seamount,NOAA OER EX2104,2021-07-06 18:13:14 UTC,33.676368,-0.4,-52.992804,-0.4,-1,0,8.09548,3.28478,2479.501,34.96334,bedrock,CAO46,2,Animalia,Cnidaria,Anthozoa,Octocorallia,Scleralcyonacea,,Keratoisididae,Keratoisidinae,"""J-clade""",,,,sp.
2263,EX2104_Dive03 Hopscotch Seamount,NOAA OER EX2104,2021-07-06 18:15:39 UTC,33.676445,-0.4,-52.992699,-0.3,2.5,21,8.04187,3.29228,2478.6591,34.96179,bedrock,PH10,1,Animalia,Porifera,Hexactinellida,Hexasterophora,Lyssacinosida,,Euplectellidae,,,,,,spp.
2263,EX2104_Dive03 Hopscotch Seamount,NOAA OER EX2104,2021-07-06 18:19:24 UTC,33.676359,0,-52.992756,-0.3,4.3,36.7,8.06045,3.29401,2477.2404,34.96351,bedrock,CAO46,1,Animalia,Cnidaria,Anthozoa,Octocorallia,Scleralcyonacea,,Keratoisididae,Keratoisidinae,"""J-clade""",,,,sp.
2263,EX2104_Dive03 Hopscotch Seamount,NOAA OER EX2104,2021-07-06 18:19:24 UTC,33.676359,0,-52.992756,-0.3,4.3,36.7,8.06045,3.29401,2477.2404,34.96351,bedrock,PH24,1,Animalia,Porifera,Hexactinellida,Hexasterophora,Sceptrulophora,,Farreidae,,Farrea,,,,spp.
2263,EX2104_Dive03 Hopscotch Seamount,NOAA OER EX2104,2021-07-06 18:19:24 UTC,33.676359,0,-52.992756,-0.3,4.3,36.7,8.06045,3.29401,2477.2404,34.96351,bedrock,CAO02,1,Animalia,Cnidaria,Anthozoa,Octocorallia,Scleralcyonacea,,Keratoisididae,,"""Lepdisis""",,,,spp.
2263,EX2104_Dive03 Hopscotch Seamount,NOAA OER EX2104,2021-07-06 18:19:28 UTC,33.676464,-0.4,-52.992655,-0.4,4.4,40.7,8.06211,3.29245,2476.746,34.96356,bedrock,PD03,1,Animalia,Porifera,,,,,,,,,,,spp.
2263,EX2104_Dive03 Hopscotch Seamount,NOAA OER EX2104,2021-07-06 18:20:03 UTC,33.676367,-0.2,-52.992679,-0.3,3.1,358.3,8.06507,3.29373,2475.4993,34.96349,bedrock,PH32,1,Animalia,Porifera,Hexactinellida,Hexasterophora,Sceptrulophora,,Euretidae,,,,,,spp.
2263,EX2104_Dive03 Hopscotch Seamount,NOAA OER EX2104,2021-07-06 18:20:15 UTC,33.676331,-0.6,-52.99262,-0.2,2.4,342.3,8.04229,3.29573,2474.6798,34.96359,bedrock,CAO02,1,Animalia,Cnidaria,Anthozoa,Octocorallia,Scleralcyonacea,,Keratoisididae,,"""Lepdisis""",,,,spp.
2263,EX2104_Dive03 Hopscotch Seamount,NOAA OER EX2104,2021-07-06 18:20:17 UTC,33.676331,-0.2,-52.99262,-0.2,2.2,336.3,8.0832,3.29384,2474.7002,34.9641,bedrock,PH10,1,Animalia,Porifera,Hexactinellida,Hexasterophora,Lyssacinosida,,Euplectellidae,,,,,,spp.
2263,EX2104_Dive03 Hopscotch Seamount,NOAA OER EX2104,2021-07-06 18:35:43 UTC,33.676402,-0.3,-52.992666,-0.4,3.3,6.5,8.06505,3.2964,2473.6234,34.96443,bedrock,PH10,3,Animalia,Porifera,Hexactinellida,Hexasterophora,Lyssacinosida,,Euplectellidae,,,,,,spp.
2263,EX2104_Dive03 Hopscotch Seamount,NOAA OER EX2104,2021-07-06 18:36:01 UTC,33.676474,-0.4,-52.99259,-0.1,4.1,18.3,8.05277,3.32146,2472.4809,34.96193,bedrock,CAO46,2,Animalia,Cnidaria,Anthozoa,Octocorallia,Scleralcyonacea,,Keratoisididae,Keratoisidinae,"""J-clade""",,,,sp.
2263,EX2104_Dive03 Hopscotch Seamount,NOAA OER EX2104,2021-07-06 18:36:16 UTC,33.676474,-0.4,-52.99259,-0.2,4.3,17,8.06312,3.29934,2471.659,34.96365,bedrock,CAO02,1,Animalia,Cnidaria,Anthozoa,Octocorallia,Scleralcyonacea,,Keratoisididae,,"""Lepdisis""",,,,spp.
2263,EX2104_Dive03 Hopscotch Seamount,NOAA OER EX2104,2021-07-06 18:36:40 UTC,33.676171,-0.1,-52.992612,-0.3,4,44.7,8.06959,3.29918,2471.4058,34.96352,bedrock,PH24,3,Animalia,Porifera,Hexactinellida,Hexasterophora,Sceptrulophora,,Farreidae,,Farrea,,,,spp.
2263,EX2104_Dive03 Hopscotch Seamount,NOAA OER EX2104,2021-07-06 18:36:45 UTC,33.676171,-0.3,-52.992612,-0.5,4.4,48.1,8.05488,3.29856,2471.1453,34.964,bedrock,CAO46,1,Animalia,Cnidaria,Anthozoa,Octocorallia,Scleralcyonacea,,Keratoisididae,Keratoisidinae,"""J-clade""",,,,sp.
2263,EX2104_Dive03 Hopscotch Seamount,NOAA OER EX2104,2021-07-06 18:39:30 UTC,33.676137,0,-52.99264,-0.4,3,52.2,8.05349,3.31868,2466.0438,34.96217,bedrock,PH10,2,Animalia,Porifera,Hexactinellida,Hexasterophora,Lyssacinosida,,Euplectellidae,,,,,,spp.
2263,EX2104_Dive03 Hopscotch Seamount,NOAA OER EX2104,2021-07-06 18:39:33 UTC,33.676137,-0.3,-52.99264,-0.4,3.3,49,8.05033,3.31818,2465.7503,34.96038,bedrock,CAO46,1,Animalia,Cnidaria,Anthozoa,Octocorallia,Scleralcyonacea,,Keratoisididae,Keratoisidinae,"""J-clade""",,,,sp.
2263,EX2104_Dive03 Hopscotch Seamount,NOAA OER EX2104,2021-07-06 18:40:00 UTC,33.676328,-0.2,-52.992503,-0.5,4.9,60.5,8.08439,3.3029,2463.5526,34.96402,bedrock,PH10,3,Animalia,Porifera,Hexactinellida,Hexasterophora,Lyssacinosida,,Euplectellidae,,,,,,spp.
2263,EX2104_Dive03 Hopscotch Seamount,NOAA OER EX2104,2021-07-06 18:40:00 UTC,33.676328,-0.2,-52.992503,-0.5,4.9,60.5,8.08439,3.3029,2463.5526,34.96402,bedrock,PD08,3,Animalia,Porifera,Demospongiae,,,,,,,,,,spp.
2263,EX2104_Dive03 Hopscotch Seamount,NOAA OER EX2104,2021-07-06 18:40:27 UTC,33.676385,-0.2,-52.99241,-0.3,5.1,38.4,8.05902,3.30457,2462.5814,34.96482,bedrock,CAO46,3,Animalia,Cnidaria,Anthozoa,Octocorallia,Scleralcyonacea,,Keratoisididae,Keratoisidinae,"""J-clade""",,,,sp.
2263,EX2104_Dive03 Hopscotch Seamount,NOAA OER EX2104,2021-07-06 18:41:01 UTC,33.676412,-0.3,-52.992446,-0.4,4.8,34,8.05718,3.30657,2461.709,34.96488,bedrock,PH13,1,Animalia,Porifera,,,,,,,,,,,spp.
2263,EX2104_Dive03 Hopscotch Seamount,NOAA OER EX2104,2021-07-06 18:41:15 UTC,33.676532,-0.3,-52.992452,-0.5,4.1,32.9,8.03787,3.30801,2461.6626,34.96415,bedrock,PH39,1,Animalia,Porifera,Hexactinellida,Hexasterophora,Sceptrulophora,,Farreidae,,Farrea,,,,spp.
2263,EX2104_Dive03 Hopscotch Seamount,NOAA OER EX2104,2021-07-06 18:41:15 UTC,33.676532,-0.3,-52.992452,-0.4,4.1,33.4,8.03787,3.30801,2461.6626,34.96415,bedrock,PH24,1,Animalia,Porifera,Hexactinellida,Hexasterophora,Sceptrulophora,,Farreidae,,Farrea,,,,spp.
2263,EX2104_Dive03 Hopscotch Seamount,NOAA OER EX2104,2021-07-06 18:41:49 UTC,33.676263,-0.2,-52.992464,-0.4,4.2,25.5,8.03632,3.30551,2461.4022,34.96473,bedrock,CAO16,1,Animalia,Cnidaria,Anthozoa,Octocorallia,Scleralcyonacea,,Primnoidae,,,,,,sp.
2263,EX2104_Dive03 Hopscotch Seamount,NOAA OER EX2104,2021-07-06 18:43:13 UTC,33.676459,-0.2,-52.992334,-0.4,3.8,19,8.05474,3.30551,2461.249,34.9648,bedrock,PD08,1,Animalia,Porifera,Demospongiae,,,,,,,,,,spp.
2263,EX2104_Dive03 Hopscotch Seamount,NOAA OER EX2104,2021-07-06 18:43:43 UTC,33.676425,-0.3,-52.992358,-0.6,2.8,7.5,8.07622,3.31307,2460.7421,34.96416,bedrock,CAO46,1,Animalia,Cnidaria,Anthozoa,Octocorallia,Scleralcyonacea,,Keratoisididae,Keratoisidinae,"""J-clade""",,,,sp.
2263,EX2104_Dive03 Hopscotch Seamount,NOAA OER EX2104,2021-07-06 18:43:50 UTC,33.676429,-0.1,-52.992352,-0.4,4,16.6,8.0582,3.30896,2460.2817,34.96408,bedrock,PH15,1,Animalia,Porifera,Hexactinellida,Hexasterophora,Sceptrulophora,,Tretodictyidae,,,,,,spp.
2263,EX2104_Dive03 Hopscotch Seamount,NOAA OER EX2104,2021-07-06 18:44:01 UTC,33.676466,-0.4,-52.992361,-0.5,4.9,22.5,8.03817,3.31229,2459.3603,34.96387,bedrock,CAO02,1,Animalia,Cnidaria,Anthozoa,Octocorallia,Scleralcyonacea,,Keratoisididae,,"""Lepdisis""",,,,spp.
2263,EX2104_Dive03 Hopscotch Seamount,NOAA OER EX2104,2021-07-06 18:44:12 UTC,33.676441,-0.2,-52.992331,-0.5,4.8,28.2,8.09356,3.30929,2458.3323,34.96435,bedrock,PH10,1,Animalia,Porifera,Hexactinellida,Hexasterophora,Lyssacinosida,,Euplectellidae,,,,,,spp.
2263,EX2104_Dive03 Hopscotch Seamount,NOAA OER EX2104,2021-07-06 18:44:29 UTC,33.676266,-0.2,-52.992422,-0.4,5,26.5,8.03724,3.30896,2457.7132,34.96352,bedrock,CAO46,2,Animalia,Cnidaria,Anthozoa,Octocorallia,Scleralcyonacea,,Keratoisididae,Keratoisidinae,"""J-clade""",,,,sp.
2263,EX2104_Dive03 Hopscotch Seamount,NOAA OER EX2104,2021-07-06 18:44:29 UTC,33.676266,-0.2,-52.992422,-0.4,5,26.5,8.03724,3.30896,2457.7132,34.96352,bedrock,PD08,2,Animalia,Porifera,Demospongiae,,,,,,,,,,spp.
2263,EX2104_Dive03 Hopscotch Seamount,NOAA OER EX2104,2021-07-06 18:44:48 UTC,33.676497,-0.2,-52.992235,-0.3,4.7,47.9,8.05905,3.3134,2457.1079,34.9648,bedrock,CAO04,1,Animalia,Cnidaria,Anthozoa,Octocorallia,Scleralcyonacea,,Keratoisididae,,,,,,sp.
2263,EX2104_Dive03 Hopscotch Seamount,NOAA OER EX2104,2021-07-06 18:44:54 UTC,33.676228,-0.1,-52.992461,-0.4,4.4,73,8.05004,3.31674,2456.9485,34.96452,bedrock,PH13,1,Animalia,Porifera,,,,,,,,,,,spp.
2263,EX2104_Dive03 Hopscotch Seamount,NOAA OER EX2104,2021-07-06 18:45:09 UTC,33.676188,-0.3,-52.992368,-0.2,4.2,99.3,8.07689,3.31135,2456.5429,34.96442,bedrock,PH10,1,Animalia,Porifera,Hexactinellida,Hexasterophora,Lyssacinosida,,Euplectellidae,,,,,,spp.
2263,EX2104_Dive03 Hopscotch Seamount,NOAA OER EX2104,2021-07-06 18:45:20 UTC,33.676188,-0.4,-52.992368,-0.3,4.9,72.8,8.04226,3.31168,2456.6508,34.96437,bedrock,CAO17,1,Animalia,Cnidaria,Anthozoa,Octocorallia,Scleralcyonacea,,Primnoidae,,,,,,sp.
2263,EX2104_Dive03 Hopscotch Seamount,NOAA OER EX2104,2021-07-06 18:46:04 UTC,33.676353,-0.2,-52.992134,-0.4,3.8,70.8,8.06322,3.31518,2455.1648,34.96454,bedrock,PH10,1,Animalia,Porifera,Hexactinellida,Hexasterophora,Lyssacinosida,,Euplectellidae,,,,,,spp.
2263,EX2104_Dive03 Hopscotch Seamount,NOAA OER EX2104,2021-07-06 18:46:23 UTC,33.676361,-0.3,-52.992168,-0.5,4.1,86,8.06178,3.3139,2454.0918,34.96463,bedrock,PH13,1,Animalia,Porifera,,,,,,,,,,,spp.
2263,EX2104_Dive03 Hopscotch Seamount,NOAA OER EX2104,2021-07-06 18:46:24 UTC,33.676361,-0.2,-52.992168,-0.4,4.1,85.2,8.0793,3.31374,2453.9917,34.96485,bedrock,PH39,1,Animalia,Porifera,Hexactinellida,Hexasterophora,Sceptrulophora,,Farreidae,,Farrea,,,,spp.
2263,EX2104_Dive03 Hopscotch Seamount,NOAA OER EX2104,2021-07-06 18:46:26 UTC,33.676419,-0.3,-52.992049,-0.3,4,82.7,8.05447,3.31374,2453.9919,34.96485,bedrock,CAO11,1,Animalia,Cnidaria,Anthozoa,Octocorallia,Scleralcyonacea,,Chrysogorgiidae,,Chrysogorgia,,,,spp.
2263,EX2104_Dive03 Hopscotch Seamount,NOAA OER EX2104,2021-07-06 18:46:26 UTC,33.676419,-0.3,-52.992049,-0.3,4,82.7,8.05447,3.31374,2453.9919,34.96485,bedrock,PD10,1,Animalia,Porifera,Demospongiae,,,,,,,,,,spp.
2263,EX2104_Dive03 Hopscotch Seamount,NOAA OER EX2104,2021-07-06 18:46:33 UTC,33.676419,-0.4,-52.992049,-0.4,4.1,69.1,8.08889,3.31324,2453.7858,34.96512,bedrock,PH24,1,Animalia,Porifera,Hexactinellida,Hexasterophora,Sceptrulophora,,Farreidae,,Farrea,,,,spp.
2263,EX2104_Dive03 Hopscotch Seamount,NOAA OER EX2104,2021-07-06 18:46:42 UTC,33.676419,-0.2,-52.992049,-0.4,4.3,28.3,8.05835,3.31374,2453.6332,34.96467,bedrock,CAH04,1,Animalia,Cnidaria,Anthozoa,Hexacorallia,Anthiparia,,Schizopathidae,,Bathypathes,,,,spp.
2263,EX2104_Dive03 Hopscotch Seamount,NOAA OER EX2104,2021-07-06 18:46:51 UTC,33.676189,-0.6,-52.992217,-0.4,4.2,6.6,8.06247,3.31468,2453.5336,34.96442,bedrock,CAO46,1,Animalia,Cnidaria,Anthozoa,Octocorallia,Scleralcyonacea,,Keratoisididae,Keratoisidinae,"""J-clade""",,,,sp.
2263,EX2104_Dive03 Hopscotch Seamount,NOAA OER EX2104,2021-07-06 18:46:53 UTC,33.676189,-0.2,-52.992217,-1.1,4.3,6.6,8.07861,3.31513,2453.4805,34.96398,bedrock,PH53,1,Animalia,Porifera,Hexactinellida,Hexasterophora,Lyssacinosida,,Euplectellidae,Bolosominae,,,,,sp.
2263,EX2104_Dive03 Hopscotch Seamount,NOAA OER EX2104,2021-07-06 18:47:05 UTC,33.676189,-0.5,-52.992217,-0.3,4,43.3,8.05461,3.31452,2453.2741,34.96437,bedrock,PD08,1,Animalia,Porifera,Demospongiae,,,,,,,,,,spp.
2263,EX2104_Dive03 Hopscotch Seamount,NOAA OER EX2104,2021-07-06 18:48:01 UTC,33.676236,-0.1,-52.992218,-0.3,3.9,80.2,8.08886,3.31868,2452.3088,34.96498,bedrock,PH82,1,Animalia,Porifera,Hexactinellida,,,,,,,,,,sp.
2263,EX2104_Dive03 Hopscotch Seamount,NOAA OER EX2104,2021-07-06 18:48:26 UTC,33.676431,-0.1,-52.992158,-0.5,4.5,28.2,8.03347,3.32024,2450.9261,34.96434,bedrock,CAO46,1,Animalia,Cnidaria,Anthozoa,Octocorallia,Scleralcyonacea,,Keratoisididae,Keratoisidinae,"""J-clade""",,,,sp.
2263,EX2104_Dive03 Hopscotch Seamount,NOAA OER EX2104,2021-07-06 18:48:56 UTC,33.676519,-0.6,-52.992128,-0.2,6.1,87.9,8.04516,3.32052,2446.7254,34.96425,bedrock,PH10,4,Animalia,Porifera,Hexactinellida,Hexasterophora,Lyssacinosida,,Euplectellidae,,,,,,spp.
2263,EX2104_Dive03 Hopscotch Seamount,NOAA OER EX2104,2021-07-06 18:49:28 UTC,33.676441,-0.4,-52.992097,-0.3,6.7,61.5,8.03767,3.33252,2444.9321,34.96521,bedrock,PH13,1,Animalia,Porifera,,,,,,,,,,,spp.
2263,EX2104_Dive03 Hopscotch Seamount,NOAA OER EX2104,2021-07-06 18:49:33 UTC,33.676465,-0.4,-52.992091,-0.6,6.9,57.1,8.05493,3.32396,2444.8325,34.96578,bedrock,PH24,1,Animalia,Porifera,Hexactinellida,Hexasterophora,Sceptrulophora,,Farreidae,,Farrea,,,,spp.
2263,EX2104_Dive03 Hopscotch Seamount,NOAA OER EX2104,2021-07-06 18:49:35 UTC,33.676465,-0.4,-52.992091,-0.3,6.9,55.6,8.04149,3.33313,2444.7795,34.96534,bedrock,PH32,1,Animalia,Porifera,Hexactinellida,Hexasterophora,Sceptrulophora,,Euretidae,,,,,,spp.
2263,EX2104_Dive03 Hopscotch Seamount,NOAA OER EX2104,2021-07-06 18:49:35 UTC,33.676465,-0.4,-52.992091,-0.3,6.9,55.6,8.04385,3.3333,2444.7796,34.96552,bedrock,CAO46,2,Animalia,Cnidaria,Anthozoa,Octocorallia,Scleralcyonacea,,Keratoisididae,Keratoisidinae,"""J-clade""",,,,sp.
2263,EX2104_Dive03 Hopscotch Seamount,NOAA OER EX2104,2021-07-06 18:49:38 UTC,33.676465,-0.3,-52.992091,-0.5,7,51,8.06539,3.33296,2444.7266,34.96484,bedrock,CAO02,3,Animalia,Cnidaria,Anthozoa,Octocorallia,Scleralcyonacea,,Keratoisididae,,"""Lepdisis""",,,,spp.
2263,EX2104_Dive03 Hopscotch Seamount,NOAA OER EX2104,2021-07-06 18:49:44 UTC,33.676512,-0.3,-52.992055,-0.2,7.1,50.2,8.07144,3.33269,2444.681,34.96558,bedrock,CAH04,1,Animalia,Cnidaria,Anthozoa,Hexacorallia,Anthiparia,,Schizopathidae,,Bathypathes,,,,spp.
2263,EX2104_Dive03 Hopscotch Seamount,NOAA OER EX2104,2021-07-06 18:50:54 UTC,33.676314,-0.4,-52.99195,-0.4,7.8,115.1,8.01484,3.33235,2444.1817,34.96539,bedrock,PH10,2,Animalia,Porifera,Hexactinellida,Hexasterophora,Lyssacinosida,,Euplectellidae,,,,,,spp.
2263,EX2104_Dive03 Hopscotch Seamount,NOAA OER EX2104,2021-07-06 18:51:10 UTC,33.676193,-0.4,-52.991928,-0.4,8,118.7,8.03345,3.32985,2443.3146,34.96562,bedrock,PH13,1,Animalia,Porifera,,,,,,,,,,,spp.
